<?xml version="1.0" encoding="utf-8"?>
<markers>
  <marker id="1" type="club" name="Club Hippique de Nice" address=" 8 Boulevard des Jardiniers, 06200 Nice" longt="7.1922165" lat="43.6967688"/>
  <marker id="2" type="club" name="A cheval sur les Monts" address="708 Avenue du Haut-Pays, 06690 Tourrette-Levens" longt="7.2794644" lat="43.7672186"/>
  <marker id="37" type="club" name="Club Hippique de Grasse" address="168 Route de Cannes, Grasse, France" longt="6.9499008" lat="43.6337137"/>
  <marker id="38" type="club" name="Ranch El Bronco" address="Col de Vence, Vence, France" longt="7.074755" lat="43.76103"/>
  <marker id="39" type="club" name="Ecurie des Louis" address="528 Route de Grenoble, Nice, France" longt="7.1868934" lat="43.7161142"/>
</markers>
